[
{"pub_event_id":1,"user_id":1,"category":"Recreation & Excersise","title":"Downtown 5k Training Program","description":"This six week 5K running program will meet in-person","starttime":"2019-12-10T00:00:00","endtime":"2019-12-10T01:00:00","sa_id":1,"address":"address","city":"city","state":"ST","lat":"28.5922","lon":"-81.3483","postal_code":"zip"},
{"pub_event_id":2,"user_id":2,"category":"Recreation & Excersise","title":"SCUBA scub","description":"A two weekend course to recieve your NAUI Open Water SCUBA Certification! Mdventure Center.","starttime":"2019-01-10T00:00:00","endtime":"2019-01-10T01:00:00","sa_id":1,"address":"address","city":"city","state":"ST","lat":"28.5539","lon":"-81.2510","postal_code":"zip"},
{"pub_event_id":3,"user_id":3,"category":"Service/Volunteer","title":"UCF Veterans Flag Day","description":"asdfasdfadfasdfadfadfadfasdfasdfadfasdfasdf","starttime":"2019-02-10T00:00:00","endtime":"2019-02-10T01:00:00","sa_id":1,"address":"address","city":"city","state":"ST","lat":"28.595630","lon":"-81.199525","postal_code":"zip"},
{"pub_event_id":4,"user_id":4,"category":"Open Forum","title":"Conscious Thought Cafe: Moral Decline in America?","description":"adfasdfasdfasdfasdfasdfasdfasdfasdf","starttime":"2019-11-12T00:00:00","endtime":"2019-11-12T01:00:00","sa_id":1,"address":"address","city":"city","state":"ST","lat":"28.608139","lon":"-81.192316","postal_code":"zip"},
{"pub_event_id":5,"user_id":5,"category":"Open Forum","title":"Candid Conversations: Professors Have Feelings, Too","description":"dfasdfadfadfasdfasdfasdfasdfadfasdfasdf","starttime":"2019-12-14T00:00:00","endtime":"2019-12-15T01:00:00","sa_id":1,"address":"address","city":"city","state":"ST","lat":"28.591734","lon":"-81.176694","postal_code":"zip"},
{"pub_event_id":6,"user_id":6,"category":"Uncategorized","title":"Womens self defense","description":"This six week 5K running program will meet in-person","starttime":"2019-12-10T00:00:00","endtime":"2019-12-10T01:00:00","sa_id":1,"address":"address","city":"city","state":"ST","lat":"28.629792","lon":"-81.199782","postal_code":"zip"}
]
